Time,header.seq,header.stamp.secs,header.stamp.nsecs,header.frame_id,pose.position.x,pose.position.y,pose.position.z,pose.orientation.x,pose.orientation.y,pose.orientation.z,pose.orientation.w
1690899086.439581,16978,1690899086,439488080,world,3.5740041732788086,3.724355697631836,0.2853860557079315,-0.0027486179023981094,-0.02214413695037365,0.022727089002728462,-0.9994927048683167
1690899086.439593,16979,1690899086,439500682,world,3.573789119720459,3.7244203090667725,0.2854350805282593,-0.0015120700700208545,-0.018856441602110863,0.022245561704039574,-0.9995735883712769
1690899086.439614,16980,1690899086,439518721,world,3.5738160610198975,3.7244327068328857,0.28543415665626526,-0.0015608790563419461,-0.019365206360816956,0.022295862436294556,-0.9995626211166382
1690899086.43962,16984,1690899086,439535135,world,3.5738723278045654,3.7244713306427,0.2854536473751068,-0.0015082282479852438,-0.019578712061047554,0.022435924038290977,-0.9995555281639099
1690899086.450956,16985,1690899086,449491345,world,3.573890447616577,3.7245001792907715,0.28545206785202026,-0.0015696127666160464,-0.019777411594986916,0.022308383136987686,-0.9995542764663696
1690899086.4595964,16986,1690899086,459495883,world,3.5738909244537354,3.7245230674743652,0.2854630947113037,-0.0014349422417581081,-0.019756224006414413,0.0220642052590847,-0.9995602965354919
1690899086.5695446,16987,1690899086,569483243,world,3.573808431625366,3.7245681285858154,0.28549453616142273,-0.0010095159523189068,-0.0180854182690382,0.022151192650198936,-0.9995905160903931
1690899086.5695543,16988,1690899086,569495021,world,3.5736258029937744,3.7245938777923584,0.28558778762817383,-0.00047682621516287327,-0.015572993084788322,0.021827993914484978,-0.9996404051780701
1690899086.5695946,16989,1690899086,569508598,world,3.573601245880127,3.7246150970458984,0.28558894991874695,-0.00042534631211310625,-0.015149487182497978,0.02170986495912075,-0.9996494650840759
1690899086.5696003,16995,1690899086,569534362,world,3.5735602378845215,3.7246174812316895,0.2855595648288727,-0.0005116940010339022,-0.015221191570162773,0.02187921851873398,-0.9996446967124939
1690899086.5696325,16996,1690899086,569544834,world,3.5738697052001953,3.7245607376098633,0.28548797965049744,-0.001348632387816906,-0.019405927509069443,0.022324398159980774,-0.9995615482330322
1690899086.5696383,16997,1690899086,569549802,world,3.5738632678985596,3.7245678901672363,0.28548556566238403,-0.0013177754590287805,-0.01922472007572651,0.022295288741588593,-0.9995657801628113
1690899086.5795565,16998,1690899086,579491903,world,3.5739526748657227,3.724529266357422,0.28548893332481384,-0.0017973358044400811,-0.020512297749519348,0.022510340437293053,-0.9995346069335938
1690899086.6095219,16999,1690899086,609459575,world,3.573918342590332,3.7245523929595947,0.28548580408096313,-0.001581536722369492,-0.02007198892533779,0.022171350196003914,-0.9995514750480652
1690899086.609529,17000,1690899086,609471239,world,3.5739378929138184,3.7245492935180664,0.2854940891265869,-0.0014762103091925383,-0.020071739330887794,0.022344745695590973,-0.9995478391647339
1690899086.6095595,17001,1690899086,609483052,world,3.5735435485839844,3.7246510982513428,0.2856192886829376,-0.0003939914458896965,-0.014384862966835499,0.02188238687813282,-0.9996570348739624
1690899086.6195734,17002,1690899086,619493882,world,3.5731375217437744,3.7246713638305664,0.28574874997138977,-0.00034578912891447544,-0.010576637461781502,0.02169073559343815,-0.9997087121009827
1690899086.6295166,17003,1690899086,629457977,world,3.5731253623962402,3.724660873413086,0.28573983907699585,-0.0004529939033091068,-0.01025648508220911,0.021726658567786217,-0.9997113347053528
1690899086.6895602,17004,1690899086,689487356,world,3.5731935501098633,3.724658489227295,0.2857322096824646,-0.00036368027213029563,-0.010864215902984142,0.021666401997208595,-0.9997062087059021
1690899086.6895645,17005,1690899086,689499134,world,3.5735676288604736,3.7246365547180176,0.2855905294418335,-0.0005521991988644004,-0.015110060572624207,0.021687863394618034,-0.9996505379676819
1690899086.6895673,17006,1690899086,689514319,world,3.573486566543579,3.724660634994507,0.2856305241584778,-0.00024054787354543805,-0.01381252333521843,0.02185000851750374,-0.9996658563613892
1690899086.6895757,17009,1690899086,689528754,world,3.57399845123291,3.7245678901672363,0.2854527235031128,-0.0017140756826847792,-0.020862599834799767,0.02225445583462715,-0.9995331764221191
1690899086.699559,17010,1690899086,699486704,world,3.5737690925598145,3.724628210067749,0.2855386734008789,-0.0007835611468181014,-0.017360560595989227,0.02198101207613945,-0.9996073246002197
1690899086.7095482,17011,1690899086,709489946,world,3.573683977127075,3.724651575088501,0.28556203842163086,-0.0006066737696528435,-0.01607872173190117,0.021790340542793274,-0.9996331334114075
1690899086.7195776,17012,1690899086,719494651,world,3.573512554168701,3.724660634994507,0.2856470048427582,-0.0004612401535268873,-0.013974924571812153,0.021685853600502014,-0.9996671080589294
1690899086.729541,17013,1690899086,729481108,world,3.5737497806549072,3.7246179580688477,0.28553158044815063,-0.0008039430249482393,-0.016981031745672226,0.021867206320166588,-0.9996163249015808
1690899086.7395608,17014,1690899086,739484871,world,3.57361102104187,3.724660873413086,0.2855936288833618,-0.0004909174749627709,-0.015301303006708622,0.021753039211034775,-0.9996462464332581
1690899086.7496202,17015,1690899086,749489641,world,3.5735840797424316,3.7246856689453125,0.28559747338294983,-0.00041295523988083005,-0.014967878349125385,0.021813690662384033,-0.9996500015258789
1690899086.759556,17016,1690899086,759489355,world,3.5737721920013428,3.7246501445770264,0.2855532467365265,-0.0006860647699795663,-0.01725541241466999,0.021768586710095406,-0.999613881111145
1690899086.7695231,17017,1690899086,769471829,world,3.5735466480255127,3.7246944904327393,0.285643607378006,-0.00033756709308363497,-0.013869413174688816,0.021660106256604195,-0.9996691942214966
1690899086.7796597,17018,1690899086,779514768,world,3.5738885402679443,3.724660634994507,0.285541296005249,-0.0009004914900287986,-0.018362320959568024,0.0217153187841177,-0.9995952248573303
1690899086.8095503,17019,1690899086,809479557,world,3.5741374492645264,3.7246031761169434,0.28546154499053955,-0.0019387479405850172,-0.0215133149176836,0.021936720237135887,-0.9995259642601013
1690899086.8095536,17020,1690899086,809491334,world,3.574129819869995,3.724663019180298,0.2855254113674164,-0.0015884687891229987,-0.020923402160406113,0.021810634061694145,-0.9995418787002563
1690899086.8095677,17021,1690899086,809504872,world,3.574035406112671,3.724738836288452,0.2855837941169739,-0.0009145041112788022,-0.01902598887681961,0.02150779217481613,-0.9995872378349304
1690899086.8195472,17022,1690899086,819484817,world,3.574178457260132,3.7247538566589355,0.2855824828147888,-0.001427275943569839,-0.0205351822078228,0.02146666683256626,-0.9995576739311218
1690899086.829529,17023,1690899086,829476188,world,3.5740604400634766,3.7248406410217285,0.2856205403804779,-0.00057446543360129,-0.018184170126914978,0.021107247099280357,-0.9996116757392883
1690899086.9595518,17024,1690899086,959484650,world,3.574073553085327,3.724886417388916,0.2856476306915283,-0.00045247687376104295,-0.017900897189974785,0.020837612450122833,-0.9996225833892822
1690899086.95956,17025,1690899086,959496542,world,3.5739457607269287,3.724925994873047,0.28571227192878723,-9.033545211423188e-05,-0.01559375412762165,0.020886879414319992,-0.9996602535247803
1690899086.9595702,17026,1690899086,959509205,world,3.574443817138672,3.724867105484009,0.28557267785072327,-0.0013458582106977701,-0.0224680844694376,0.02110942453145981,-0.9995237588882446
1690899086.9595864,17032,1690899086,959532933,world,3.5746824741363525,3.7249693870544434,0.28546959161758423,-0.0016004493227228522,-0.023110972717404366,0.019536614418029785,-0.9995406866073608
1690899086.9596078,17033,1690899086,959545157,world,3.5747759342193604,3.7249505519866943,0.2854539155960083,-0.0014419229701161385,-0.02285379357635975,0.018698392435908318,-0.9995629787445068
1690899086.9596133,17036,1690899086,959559872,world,3.574901580810547,3.7251381874084473,0.28566762804985046,-0.002823568880558014,-0.024230867624282837,0.01938958838582039,-0.9995144009590149
1690899086.9695232,17037,1690899086,969474849,world,3.5749080181121826,3.725208282470703,0.2857320308685303,-0.0021345701534301043,-0.023434394970536232,0.019201116636395454,-0.9995387196540833
1690899086.9795527,17038,1690899086,979487653,world,3.573760747909546,3.725269079208374,0.2862986624240875,0.002353962743654847,-0.008387201465666294,0.019687296822667122,-0.9997683167457581
1690899086.989551,17039,1690899086,989484662,world,3.5748517513275146,3.7253496646881104,0.28574857115745544,-7.600166281918064e-05,-0.020135223865509033,0.018269415944814682,-0.999630331993103
1690899087.0595498,17040,1690899087,59485821,world,3.5749926567077637,3.725383758544922,0.28575679659843445,-0.00016989395953714848,-0.020958056673407555,0.01819150149822235,-0.9996148943901062
1690899087.0595582,17041,1690899087,59496485,world,3.575160503387451,3.725463628768921,0.2857586145401001,-0.0007283391896635294,-0.022173210978507996,0.01808585412800312,-0.999590277671814
1690899087.05957,17042,1690899087,59511242,world,3.575201988220215,3.7255449295043945,0.2858290374279022,-0.00019713731308002025,-0.021386368200182915,0.01796277053654194,-0.9996098875999451
1690899087.0595741,17046,1690899087,59527757,world,3.575651168823242,3.72591495513916,0.28598901629447937,-0.0008993717492558062,-0.02364121936261654,0.018134497106075287,-0.9995556473731995
1690899087.069607,17047,1690899087,69491169,world,3.5756494998931885,3.72599196434021,0.2859734892845154,-0.0003624066011980176,-0.022844690829515457,0.01778438873589039,-0.9995808005332947
1690899087.0795398,17048,1690899087,79482711,world,3.5757172107696533,3.7260756492614746,0.28598999977111816,-0.0005881811957806349,-0.02314930595457554,0.01755521632730961,-0.9995777606964111
1690899087.0895138,17049,1690899087,89450443,world,3.575704574584961,3.726149797439575,0.28598812222480774,-3.447258859523572e-05,-0.022238681092858315,0.017251012846827507,-0.9996038675308228
1690899087.099593,17050,1690899087,99505705,world,3.5757546424865723,3.726209878921509,0.28597491979599,3.294423731858842e-05,-0.021942948922514915,0.016960399225354195,-0.9996153712272644
1690899087.1095817,17051,1690899087,109488418,world,3.575819492340088,3.7262766361236572,0.2859736382961273,3.0976429115980864e-05,-0.022173145785927773,0.016464563086628914,-0.9996185898780823
1690899087.1195629,17052,1690899087,119493826,world,3.575836658477783,3.726297378540039,0.28602084517478943,0.00022907767561264336,-0.021655729040503502,0.01627996563911438,-0.9996329545974731
1690899087.1295483,17053,1690899087,129484866,world,3.5759873390197754,3.726262092590332,0.2860305607318878,-0.00015760358655825257,-0.02248888835310936,0.016397181898355484,-0.9996126294136047
1690899087.1395597,17054,1690899087,139487165,world,3.575998544692993,3.7262630462646484,0.2860344350337982,-5.25458881384111e-06,-0.02180304192006588,0.016086559742689133,-0.9996329545974731
1690899087.1496012,17055,1690899087,149512789,world,3.576145648956299,3.726284980773926,0.28606942296028137,-0.0008764669764786959,-0.023244934156537056,0.01627606526017189,-0.9995969533920288
1690899087.1595588,17056,1690899087,159494121,world,3.5762219429016113,3.726292371749878,0.2860246002674103,-0.000842212641146034,-0.023491811007261276,0.016077112406492233,-0.9995944499969482
1690899087.1695452,17057,1690899087,169484558,world,3.576209545135498,3.7262494564056396,0.28607070446014404,-0.0009914545807987452,-0.023256264626979828,0.01764739118516445,-0.9995733499526978
1690899087.1795487,17058,1690899087,179487042,world,3.576367139816284,3.726128101348877,0.2859308421611786,-0.0009177688625641167,-0.02292627841234207,0.01680656336247921,-0.9995955228805542
1690899087.189553,17059,1690899087,189486380,world,3.576580762863159,3.7260706424713135,0.28540903329849243,-0.0019446444930508733,-0.02367887832224369,0.014926793053746223,-0.9996063113212585
1690899087.1995718,17060,1690899087,199502315,world,3.5766992568969727,3.7258646488189697,0.28548523783683777,-0.00132361997384578,-0.02334641106426716,0.015620877966284752,-0.9996045231819153
1690899087.3195746,17061,1690899087,319487344,world,3.5765225887298584,3.725374460220337,0.28580784797668457,0.0021735159680247307,-0.019885433837771416,0.020621852949261665,-0.9995872974395752
1690899087.3195817,17063,1690899087,319503397,world,3.577329158782959,3.7257604598999023,0.28558745980262756,-0.0034370170906186104,-0.02510910853743553,0.012764769606292248,-0.9995973110198975
1690899087.3196137,17064,1690899087,319519255,world,3.5772833824157715,3.725776433944702,0.28565868735313416,-0.0035399910993874073,-0.024826791137456894,0.013160541653633118,-0.9995988607406616
1690899087.3196166,17072,1690899087,319551610,world,3.578327178955078,3.725679397583008,0.2852681875228882,-0.005918858107179403,-0.02548685483634472,0.008770793676376343,-0.9996192455291748
1690899087.3295453,17073,1690899087,329484232,world,3.5786449909210205,3.7256436347961426,0.2850619852542877,-0.005454943515360355,-0.025138843804597855,0.0069504231214523315,-0.999644935131073
1690899087.3395574,17074,1690899087,339482121,world,3.5787782669067383,3.7256245613098145,0.2851957082748413,-0.004841972142457962,-0.02447771281003952,0.007269237190485001,-0.9996622204780579
1690899087.3496382,17075,1690899087,349515009,world,3.57889461517334,3.7257039546966553,0.28528445959091187,-0.0050378418527543545,-0.024890167638659477,0.008516741916537285,-0.9996412992477417
1690899087.3595722,17076,1690899087,359486749,world,3.579082489013672,3.725754976272583,0.28528866171836853,-0.0052530113607645035,-0.025344640016555786,0.008061918430030346,-0.9996325373649597
1690899087.3695242,17077,1690899087,369472454,world,3.5793874263763428,3.7257542610168457,0.2852226793766022,-0.005133823957294226,-0.02575933188199997,0.006910496857017279,-0.9996311068534851
1690899087.37954,17078,1690899087,379482672,world,3.579456090927124,3.7258551120758057,0.28521928191185,-0.004500280600041151,-0.025061948224902153,0.006172664929181337,-0.9996567964553833
1690899087.3895588,17079,1690899087,389485548,world,3.5793399810791016,3.725799560546875,0.2854185402393341,-0.0012969599338248372,-0.020077329128980637,0.0056692371144890785,-0.999781608581543
1690899087.3995576,17080,1690899087,399488097,world,3.578575849533081,3.725992202758789,0.28577935695648193,-0.0005658252630382776,-0.00923115760087967,0.004520684015005827,-0.9999470114707947
1690899087.5295563,17081,1690899087,529484274,world,3.578558921813965,3.725924491882324,0.2859470248222351,0.0004742101300507784,-0.007978311739861965,0.005242479033768177,-0.999954342842102
1690899087.5295637,17082,1690899087,529498791,world,3.57875394821167,3.726154088973999,0.28574058413505554,-0.0005056975060142577,-0.009798357263207436,0.004036581143736839,-0.999943733215332
1690899087.5296006,17083,1690899087,529514584,world,3.579711437225342,3.726135015487671,0.28542280197143555,-0.001065458171069622,-0.02085217460989952,0.004064412787556648,-0.9997738003730774
1690899087.5296125,17089,1690899087,529537816,world,3.580965995788574,3.7264251708984375,0.28531527519226074,-0.0028497870080173016,-0.023657098412513733,0.0011692098341882229,-0.9997154474258423
1690899087.5296147,17090,1690899087,529550957,world,3.581064462661743,3.726573944091797,0.2853265404701233,-0.0019640126265585423,-0.02267403155565262,0.0005097890389151871,-0.9997409582138062
1690899087.52963,17093,1690899087,529565938,world,3.5807645320892334,3.7267870903015137,0.28553488850593567,-0.00019830345991067588,-0.012402263469994068,-0.0018171046394854784,-0.9999215006828308
1690899087.5395498,17094,1690899087,539481624,world,3.5815324783325195,3.7268359661102295,0.2854984402656555,-0.002201619790866971,-0.023769421502947807,0.0012030014768242836,-0.9997143149375916
1690899087.5497746,17095,1690899087,549567788,world,3.580883741378784,3.7266414165496826,0.2859812378883362,0.0017821892397478223,-0.009091930463910103,-0.001629738020710647,-0.9999558329582214
1690899087.5595791,17096,1690899087,559493772,world,3.5808980464935303,3.7267656326293945,0.28605133295059204,0.001644503208808601,-0.008123460225760937,-0.001772633520886302,-0.9999641180038452
1690899087.569536,17097,1690899087,569478558,world,3.5810158252716064,3.7268481254577637,0.2860592305660248,0.001637141453102231,-0.009146665222942829,-0.0019436199218034744,-0.9999549388885498
1690899087.5796149,17098,1690899087,579505168,world,3.5811290740966797,3.7268731594085693,0.2860143184661865,0.0013212088961154222,-0.00874019879847765,-0.002311322372406721,-0.9999582767486572
1690899087.5895524,17099,1690899087,589486589,world,3.581233263015747,3.7269198894500732,0.2859349250793457,0.0010897987522184849,-0.008541095070540905,-0.0028830396477133036,-0.9999588131904602
1690899087.599564,17100,1690899087,599497878,world,3.5813889503479004,3.727017641067505,0.28592970967292786,0.0010272294748574495,-0.008713284507393837,-0.0034805284813046455,-0.9999555349349976
1690899087.6096077,17101,1690899087,609513815,world,3.581479549407959,3.7270891666412354,0.28597286343574524,0.0010972789023071527,-0.008256224915385246,-0.003975961357355118,-0.9999573826789856
1690899087.7295563,17102,1690899087,729484339,world,3.5815701484680176,3.7272050380706787,0.2860061526298523,0.001148998737335205,-0.00793508905917406,-0.004495199304074049,-0.999957799911499
1690899087.729562,17103,1690899087,729495263,world,3.5816946029663086,3.7272789478302,0.285995215177536,0.0010759843280538917,-0.008092688396573067,-0.005075734108686447,-0.9999538064002991
1690899087.7295837,17104,1690899087,729510459,world,3.581840991973877,3.727323055267334,0.28596851229667664,0.0005339456256479025,-0.006844428367912769,-0.005947551690042019,-0.9999588131904602
1690899087.7295964,17111,1690899087,729536853,world,3.584409475326538,3.7277214527130127,0.28536924719810486,-0.0005698496825061738,-0.021238263696432114,-0.006615644786506891,-0.9997524619102478
1690899087.7296343,17112,1690899087,729549309,world,3.584632396697998,3.7277259826660156,0.2853764295578003,-0.00025038616149686277,-0.02107880637049675,-0.006836705841124058,-0.9997544288635254
1690899087.7296388,17113,1690899087,729553971,world,3.584650993347168,3.7278623580932617,0.2854130268096924,0.0012043984606862068,-0.01595522090792656,-0.009273502975702286,-0.9998290538787842
1690899087.7396433,17114,1690899087,739505015,world,3.585131883621216,3.7278695106506348,0.2853583097457886,-0.00025357058621011674,-0.020591337233781815,-0.009256970137357712,-0.9997451305389404
1690899087.7495687,17115,1690899087,749499598,world,3.585165500640869,3.7279975414276123,0.28535205125808716,0.0008277370361611247,-0.01848248764872551,-0.010364106856286526,-0.9997751116752625
1690899087.769553,17116,1690899087,769484664,world,3.585296392440796,3.728099822998047,0.2853507995605469,0.0011905800784006715,-0.01774412952363491,-0.011014864780008793,-0.9997812509536743
1690899087.769561,17117,1690899087,769509847,world,3.585495948791504,3.7282307147979736,0.28538021445274353,0.0004116335476282984,-0.01916596107184887,-0.012572013773024082,-0.9997372627258301
1690899087.7795618,17118,1690899087,779493406,world,3.5854709148406982,3.728292465209961,0.28558653593063354,0.0015336115611717105,-0.014824955724179745,-0.013408503495156765,-0.9997990131378174
1690899087.7895598,17119,1690899087,789492167,world,3.585224151611328,3.728147029876709,0.28596100211143494,0.0023192137014120817,-0.007407974451780319,-0.014988318085670471,-0.9998576045036316
1690899087.799584,17120,1690899087,799500887,world,3.58596134185791,3.728386402130127,0.28574231266975403,0.0023794861044734716,-0.014526309445500374,-0.014614762738347054,-0.9997848868370056
1690899087.809558,17121,1690899087,809486276,world,3.5865414142608643,3.728436231613159,0.2856549024581909,0.001178904203698039,-0.01968938298523426,-0.015105027705430984,-0.999691367149353
1690899087.9495714,17122,1690899087,949489459,world,3.586555242538452,3.728569269180298,0.28571876883506775,0.0018399932887405157,-0.015672430396080017,-0.01583661511540413,-0.9997500777244568
1690899087.9495776,17123,1690899087,949515147,world,3.58707594871521,3.7286999225616455,0.28568440675735474,0.0004604288551490754,-0.020144866779446602,-0.016263986006379128,-0.9996647238731384
1690899087.949582,17128,1690899087,949537261,world,3.5879247188568115,3.7297303676605225,0.28569403290748596,0.0009722943068481982,-0.01608937792479992,-0.0225494597107172,-0.9996157884597778
1690899087.9496312,17129,1690899087,949550176,world,3.588407516479492,3.7298803329467773,0.28556177020072937,0.0006076169083826244,-0.019673962146043777,-0.0238353181630373,-0.9995220899581909
1690899087.949638,17132,1690899087,949561681,world,3.5894320011138916,3.730328321456909,0.2855075001716614,-0.0014572625514119864,-0.024034185335040092,-0.024917274713516235,-0.9993994832038879
1690899087.9496627,17133,1690899087,949577072,world,3.589653730392456,3.7304553985595703,0.2855073809623718,0.00018401163106318563,-0.021016184240579605,-0.027243979275226593,-0.9994078278541565
1690899087.9496696,17135,1690899087,949604544,world,3.5902302265167236,3.730828046798706,0.285571426153183,0.0006178590701892972,-0.0209051463752985,-0.029666835442185402,-0.9993410706520081
1690899087.9595332,17136,1690899087,959474643,world,3.589583396911621,3.7306556701660156,0.2863787114620209,0.001698627951554954,-0.006944604218006134,-0.029528783634305,-0.9995384216308594
1690899087.9695423,17137,1690899087,969483772,world,3.5898518562316895,3.730841875076294,0.2863180935382843,0.0014011722523719072,-0.007165698334574699,-0.030521027743816376,-0.9995075464248657
1690899087.9995623,17138,1690899087,999493864,world,3.5902657508850098,3.731064558029175,0.28623586893081665,0.0015775234205648303,-0.008998231031000614,-0.031968556344509125,-0.9994471669197083
1690899087.9995792,17139,1690899087,999519871,world,3.590602397918701,3.7312490940093994,0.2861674427986145,0.001645500655286014,-0.010037088766694069,-0.03328406438231468,-0.9993942379951477
1690899087.999582,17140,1690899087,999528606,world,3.5909271240234375,3.7312304973602295,0.286050945520401,0.0007819802267476916,-0.010335570201277733,-0.03429030254483223,-0.9993582367897034
1690899088.0095398,17141,1690899088,9488741,world,3.5920164585113525,3.7316160202026367,0.285916805267334,0.0011681263567879796,-0.021232688799500465,-0.03495844081044197,-0.999162495136261
1690899088.0195427,17142,1690899088,19469352,world,3.591865062713623,3.7318694591522217,0.2861228287220001,0.0018130599055439234,-0.014108632691204548,-0.03638699650764465,-0.999236524105072
1690899088.0296593,17143,1690899088,29493207,world,3.5923898220062256,3.7320284843444824,0.2861185371875763,0.0017917727818712592,-0.018260546028614044,-0.0370500274002552,-0.9991450309753418
1690899088.0395756,17144,1690899088,39489320,world,3.5922555923461914,3.7321741580963135,0.28658339381217957,0.004042317625135183,-0.013537042774260044,-0.03697488456964493,-0.9992163777351379
1690899088.0495148,17145,1690899088,49444243,world,3.5929577350616455,3.7325408458709717,0.28639206290245056,0.0012267290148884058,-0.02086487039923668,-0.03781791403889656,-0.9990660548210144
1690899088.0595562,17146,1690899088,59487210,world,3.593142032623291,3.7327070236206055,0.2865123450756073,0.0027943013701587915,-0.017843589186668396,-0.039960429072380066,-0.99903804063797
1690899088.0695198,17147,1690899088,69443108,world,3.592879295349121,3.732773542404175,0.2869877815246582,0.004318459890782833,-0.009451632387936115,-0.040686797350645065,-0.9991179704666138
1690899088.0795567,17148,1690899088,79487236,world,3.5933492183685303,3.732996940612793,0.2870127558708191,0.004709108266979456,-0.011197276413440704,-0.04224490374326706,-0.999033510684967
1690899088.089609,17149,1690899088,89493180,world,3.594064235687256,3.733365774154663,0.2868722677230835,0.003281851764768362,-0.018896901980042458,-0.042217917740345,-0.9989243149757385
1690899088.0995681,17150,1690899088,99488483,world,3.594083070755005,3.7337634563446045,0.2869545817375183,0.004025602713227272,-0.016810743138194084,-0.04311593621969223,-0.9989205002784729
1690899088.109542,17151,1690899088,109488498,world,3.5945816040039062,3.7343482971191406,0.2867557108402252,0.002518913010135293,-0.020619694143533707,-0.04515005275607109,-0.9987642168998718
1690899088.1195786,17152,1690899088,119488994,world,3.5942702293395996,3.7346386909484863,0.28714150190353394,0.004303332883864641,-0.010726090520620346,-0.0459650419652462,-0.9988762736320496
1690899088.1295578,17153,1690899088,129485715,world,3.5950229167938232,3.7349331378936768,0.28701508045196533,0.003954475745558739,-0.017722181975841522,-0.04670419171452522,-0.9987437725067139
1690899088.1395655,17154,1690899088,139484948,world,3.5950534343719482,3.7353670597076416,0.28701522946357727,0.004176379181444645,-0.015580795705318451,-0.04841898754239082,-0.9986968636512756
1690899088.1495693,17155,1690899088,149500047,world,3.594475746154785,3.735265016555786,0.28788208961486816,0.006708499509841204,-0.004104455932974815,-0.047064464539289474,-0.9988609552383423
1690899088.1596098,17156,1690899088,159499970,world,3.5947635173797607,3.7356085777282715,0.288082480430603,0.006477621383965015,-0.0032548080198466778,-0.04805117845535278,-0.998818576335907
1690899088.1695287,17157,1690899088,169473848,world,3.5951592922210693,3.7358052730560303,0.28811588883399963,0.007481426931917667,-0.0056778728030622005,-0.04829812049865723,-0.9987888336181641
1690899088.179549,17158,1690899088,179484976,world,3.595487117767334,3.736267328262329,0.2880094647407532,0.006924535147845745,-0.006744162645190954,-0.05012119933962822,-0.9986963868141174
1690899088.1895273,17159,1690899088,189448196,world,3.5957484245300293,3.736557960510254,0.2881892919540405,0.007806749083101749,-0.0058234864845871925,-0.05121616646647453,-0.9986401200294495
1690899088.1995907,17160,1690899088,199498654,world,3.5961596965789795,3.73703670501709,0.28809961676597595,0.006064259447157383,-0.005758672021329403,-0.054052986204624176,-0.9985030293464661
1690899088.2095523,17161,1690899088,209487206,world,3.596409320831299,3.737579107284546,0.2880013585090637,0.005712754558771849,-0.006476080976426601,-0.055193908512592316,-0.99843829870224
1690899088.2195704,17162,1690899088,219488359,world,3.5966460704803467,3.7378089427948,0.2879932224750519,0.005349388346076012,-0.005555293057113886,-0.0562584213912487,-0.9983864426612854
1690899088.2295165,17163,1690899088,229455749,world,3.5969929695129395,3.738182306289673,0.2879534363746643,0.005518610589206219,-0.007604670710861683,-0.05726425349712372,-0.9983149170875549
1690899088.2395537,17164,1690899088,239483653,world,3.597209930419922,3.738326072692871,0.28808146715164185,0.004792305175215006,-0.0054347035475075245,-0.058330047875642776,-0.998271107673645
1690899088.2495623,17165,1690899088,249489955,world,3.5983059406280518,3.7387895584106445,0.28744757175445557,0.005749506410211325,-0.01695314608514309,-0.06022699177265167,-0.9980242252349854
1690899088.2595801,17166,1690899088,259493761,world,3.597729206085205,3.7386765480041504,0.2882354259490967,0.006274498533457518,-0.005459566134959459,-0.0597885362803936,-0.9981764554977417
1690899088.2695258,17167,1690899088,269470928,world,3.5980639457702637,3.7388525009155273,0.28824904561042786,0.005909380037337542,-0.004620591644197702,-0.06141096353530884,-0.9980843663215637
1690899088.2795432,17168,1690899088,279483205,world,3.598945140838623,3.739069700241089,0.2881280779838562,0.007359403185546398,-0.010337745770812035,-0.06242809817194939,-0.9979687929153442
1690899088.2895515,17169,1690899088,289483256,world,3.599773645401001,3.7394182682037354,0.2877312898635864,0.006120725534856319,-0.015481824986636639,-0.06531842797994614,-0.9977256059646606
1690899088.2995856,17170,1690899088,299512274,world,3.6003530025482178,3.7397515773773193,0.2878093123435974,0.00512242317199707,-0.02055794559419155,-0.06449244916439056,-0.9976933598518372
1690899088.3095586,17171,1690899088,309489029,world,3.600043296813965,3.7400407791137695,0.2877911329269409,0.006817081477493048,-0.011198412626981735,-0.06710820645093918,-0.9976595640182495
1690899088.3195617,17172,1690899088,319485607,world,3.601010799407959,3.7403790950775146,0.2875538170337677,0.005720204673707485,-0.01974593475461006,-0.06794565916061401,-0.9974772334098816
1690899088.329533,17173,1690899088,329478732,world,3.600480794906616,3.74053955078125,0.28799691796302795,0.007148829288780689,-0.007933227345347404,-0.06898034363985062,-0.9975608587265015
1690899088.3395422,17174,1690899088,339478973,world,3.60083270072937,3.740744113922119,0.2880115509033203,0.0071970876306295395,-0.007453871425241232,-0.06985276192426682,-0.9975035190582275
1690899088.3496606,17175,1690899088,349533807,world,3.6011719703674316,3.7410411834716797,0.2880610227584839,0.007465879432857037,-0.0076776836067438126,-0.07061012834310532,-0.997446596622467
1690899088.3595095,17176,1690899088,359439550,world,3.6014018058776855,3.74133563041687,0.28824183344841003,0.008646087720990181,-0.0038289898075163364,-0.07071398943662643,-0.9974518418312073
1690899088.369525,17177,1690899088,369470855,world,3.6016311645507812,3.741558074951172,0.288400799036026,0.007989805191755295,-0.003080412046983838,-0.07179104536771774,-0.9973829984664917
1690899088.3795254,17178,1690899088,379456492,world,3.6020431518554688,3.741335153579712,0.2886517643928528,0.010137026198208332,-0.000808155455160886,-0.07242922484874725,-0.9973217248916626
1690899088.3895524,17179,1690899088,389484618,world,3.602550745010376,3.7417547702789307,0.2885526120662689,0.010471297428011894,-0.002909247763454914,-0.07414085417985916,-0.9971886277198792
1690899088.3995597,17180,1690899088,399485982,world,3.603029251098633,3.742135763168335,0.288485586643219,0.010573337785899639,-0.004257961641997099,-0.07572554051876068,-0.9970635175704956
1690899088.4095592,17181,1690899088,409490123,world,3.603411912918091,3.742710590362549,0.2883680462837219,0.00916385930031538,-0.005362950265407562,-0.07803420722484589,-0.9968941807746887
1690899088.4195738,17182,1690899088,419502131,world,3.6036922931671143,3.7429323196411133,0.28843954205513,0.00892119575291872,-0.004229449201375246,-0.07905615866184235,-0.9968213438987732
1690899088.429504,17183,1690899088,429444408,world,3.604052782058716,3.743210792541504,0.2884511649608612,0.00898606888949871,-0.004725539591163397,-0.08012554049491882,-0.9967330694198608
1690899088.4395604,17184,1690899088,439485793,world,3.604207992553711,3.7435052394866943,0.28852638602256775,0.008789731189608574,-0.003104287199676037,-0.08115378767251968,-0.9966580271720886
1690899088.4496002,17185,1690899088,449498551,world,3.6045141220092773,3.7438273429870605,0.2884776294231415,0.008252430707216263,-0.003441885346546769,-0.08267974853515625,-0.9965360760688782
1690899088.4595487,17186,1690899088,459485481,world,3.6047654151916504,3.7441446781158447,0.2884123921394348,0.007423198316246271,-0.0034041700419038534,-0.08380782604217529,-0.9964484572410583
1690899088.4695215,17187,1690899088,469472546,world,3.6062324047088623,3.7446634769439697,0.2876199781894684,0.006483869627118111,-0.017259223386645317,-0.0869097039103508,-0.9960456490516663
1690899088.4795802,17188,1690899088,479487673,world,3.6060049533843994,3.7446842193603516,0.28806638717651367,0.0072242338210344315,-0.00865896511822939,-0.08720549941062927,-0.9961265325546265
1690899088.4895537,17189,1690899088,489486555,world,3.6059718132019043,3.744861602783203,0.28815504908561707,0.006888371892273426,-0.005691030528396368,-0.08827249705791473,-0.996056318283081
1690899088.4995866,17190,1690899088,499498677,world,3.6062393188476562,3.745020866394043,0.28830990195274353,0.008055933751165867,-0.0045901453122496605,-0.08928929269313812,-0.9959626793861389
1690899088.5096886,17191,1690899088,509527944,world,3.6065776348114014,3.7452468872070312,0.2880941927433014,0.007001013960689306,-0.006547410506755114,-0.09039031714200974,-0.9958602786064148
1690899088.519523,17192,1690899088,519459895,world,3.606755495071411,3.7454166412353516,0.2882910370826721,0.00810347218066454,-0.00511254882439971,-0.0913473591208458,-0.9957730174064636
1690899088.529539,17193,1690899088,529481417,world,3.607025146484375,3.7456881999969482,0.2882855534553528,0.008063318207859993,-0.0045879376120865345,-0.09258559346199036,-0.9956615567207336
1690899088.539688,17194,1690899088,539500919,world,3.6075305938720703,3.7461185455322266,0.28813451528549194,0.00690288282930851,-0.005955538712441921,-0.09635409712791443,-0.9953053593635559
1690899088.5495822,17195,1690899088,549507629,world,3.607696294784546,3.7463793754577637,0.2881908118724823,0.0059808692894876,-0.005340753123164177,-0.09630527347326279,-0.9953195452690125
1690899088.5595927,17196,1690899088,559504023,world,3.607905864715576,3.7466485500335693,0.288383424282074,0.007048068102449179,-0.003938155714422464,-0.0975552573800087,-0.9951973557472229
1690899088.569537,17197,1690899088,569456027,world,3.6080410480499268,3.74694561958313,0.28848397731781006,0.0072793359868228436,-0.003432324156165123,-0.09812498837709427,-0.9951415657997131
1690899088.5795505,17198,1690899088,579486305,world,3.6085739135742188,3.7473061084747314,0.28841865062713623,0.007870353758335114,-0.006516098976135254,-0.09907005727291107,-0.995028018951416
1690899088.589566,17199,1690899088,589497461,world,3.6084048748016357,3.747426986694336,0.28861379623413086,0.007509773131459951,-0.0027588435914367437,-0.10041219741106033,-0.9949137568473816
1690899088.5995646,17200,1690899088,599493528,world,3.608478546142578,3.747828722000122,0.28870320320129395,0.007732923608273268,-0.0023648091591894627,-0.10067500174045563,-0.994886577129364
1690899088.6095593,17201,1690899088,609489149,world,3.608649969100952,3.7482337951660156,0.28878843784332275,0.008300521411001682,-0.0017462570685893297,-0.10111881047487259,-0.9948381781578064
1690899088.6195478,17202,1690899088,619485579,world,3.6089189052581787,3.7486379146575928,0.28870993852615356,0.010388314723968506,-0.0007522155647166073,-0.10008563846349716,-0.9949243068695068
1690899088.6295378,17203,1690899088,629482171,world,3.6090619564056396,3.748957872390747,0.28886646032333374,0.010567165911197662,0.00013460706395562738,-0.10074828565120697,-0.9948558211326599
1690899088.6395738,17204,1690899088,639490447,world,3.6092982292175293,3.749386787414551,0.28894704580307007,0.010818940587341785,-0.0004615058714989573,-0.10243740677833557,-0.9946805238723755
1690899088.6495552,17205,1690899088,649492526,world,3.6092770099639893,3.7499186992645264,0.2891187071800232,0.010501199401915073,0.0009822803549468517,-0.10313168168067932,-0.9946118593215942
1690899088.659551,17206,1690899088,659486087,world,3.6099886894226074,3.7505156993865967,0.2888496220111847,0.01014371681958437,-0.005288945976644754,-0.1049879714846611,-0.9944077134132385
1690899088.6695516,17207,1690899088,669446933,world,3.609773874282837,3.750664710998535,0.28948646783828735,0.009447232820093632,-0.0003862276498693973,-0.10728130489587784,-0.9941838383674622
1690899088.6795487,17208,1690899088,679486498,world,3.61055064201355,3.7515010833740234,0.2891509532928467,0.009343234822154045,-0.012974318116903305,-0.10907936841249466,-0.9939044713973999
1690899088.6895456,17209,1690899088,689484373,world,3.6105127334594727,3.7519631385803223,0.28935059905052185,0.009894140996038914,-0.009839143604040146,-0.11005990952253342,-0.9938269853591919
1690899088.6995904,17210,1690899088,699494269,world,3.609851837158203,3.752354860305786,0.29003235697746277,0.010012618266046047,0.0009733533370308578,-0.11095262318849564,-0.9937747716903687
1690899088.7095501,17211,1690899088,709486319,world,3.610079765319824,3.7528061866760254,0.28988295793533325,0.009029855951666832,-0.0008075101068243384,-0.111728735268116,-0.9936974048614502
1690899088.7195609,17212,1690899088,719488512,world,3.6102542877197266,3.753214120864868,0.2901473343372345,0.0107579892501235,4.946729677612893e-05,-0.11222094297409058,-0.9936251044273376
1690899088.72956,17213,1690899088,729485762,world,3.610438585281372,3.753554582595825,0.2903535068035126,0.012061195448040962,0.0007939740316942334,-0.11267804354429245,-0.9935581088066101
1690899088.7396016,17214,1690899088,739504191,world,3.610684871673584,3.7541515827178955,0.29024773836135864,0.011166507378220558,-0.0007786848582327366,-0.11429661512374878,-0.9933836460113525
1690899088.7495387,17215,1690899088,749461136,world,3.6109631061553955,3.7546684741973877,0.29035815596580505,0.012714306823909283,-0.0024607679806649685,-0.1148151233792305,-0.9933025240898132
1690899088.7595582,17216,1690899088,759488822,world,3.6110424995422363,3.755244016647339,0.29051467776298523,0.013219259679317474,-0.0029001720249652863,-0.11563552170991898,-0.9931995272636414
1690899088.769544,17217,1690899088,769485211,world,3.6112024784088135,3.7555794715881348,0.29061296582221985,0.01312510296702385,-0.0020238386932760477,-0.11685065925121307,-0.9930607080459595
1690899088.779543,17218,1690899088,779483965,world,3.6115150451660156,3.7561213970184326,0.2905609607696533,0.014273942448198795,-0.0021594304125756025,-0.11630421131849289,-0.9931087493896484
1690899088.7895474,17219,1690899088,789484977,world,3.6116068363189697,3.756544589996338,0.29079484939575195,0.014887617900967598,-0.0016614602645859122,-0.1173572987318039,-0.9929767847061157
1690899088.7995486,17220,1690899088,799452539,world,3.6116433143615723,3.756995916366577,0.29095861315727234,0.014934835955500603,-0.0007629700121469796,-0.1176333948969841,-0.9929445385932922
1690899088.809551,17221,1690899088,809487137,world,3.611729383468628,3.7573018074035645,0.29116231203079224,0.014276976697146893,-0.0010407628724351525,-0.11902261525392532,-0.9927883148193359
1690899088.819554,17222,1690899088,819483759,world,3.611809730529785,3.757768154144287,0.29127469658851624,0.014702280052006245,3.6287333387008402e-06,-0.11945226788520813,-0.9927311539649963
1690899088.8296175,17223,1690899088,829496048,world,3.611961841583252,3.758030891418457,0.29173967242240906,0.01740160584449768,0.002447022357955575,-0.12037990987300873,-0.9925724267959595
1690899088.8395963,17224,1690899088,839503534,world,3.611982583999634,3.758572578430176,0.2918117940425873,0.01720762625336647,0.002769326325505972,-0.12101598083972931,-0.9924975633621216
1690899088.849568,17225,1690899088,849487203,world,3.6121952533721924,3.758967399597168,0.29186320304870605,0.017184244468808174,0.0020997184328734875,-0.12190128117799759,-0.9923912882804871
1690899088.85955,17226,1690899088,859472643,world,3.612466335296631,3.7594878673553467,0.29184120893478394,0.016195818781852722,0.0015791149344295263,-0.12375874072313309,-0.9921789765357971
1690899088.8695295,17227,1690899088,869469090,world,3.612520933151245,3.7600369453430176,0.2919372022151947,0.01692766323685646,0.0003313468478154391,-0.12360532581806183,-0.9921870231628418
1690899088.8795428,17228,1690899088,879481954,world,3.612722396850586,3.7602453231811523,0.29206132888793945,0.017573140561580658,0.0017165265744552016,-0.12476277351379395,-0.9920294880867004
1690899088.8895795,17229,1690899088,889471517,world,3.6128673553466797,3.7606372833251953,0.2921725809574127,0.018274500966072083,0.0018623772775754333,-0.12547151744365692,-0.9919271469116211
1690899088.899528,17230,1690899088,899449250,world,3.6129326820373535,3.761340379714966,0.2921486496925354,0.01733393967151642,0.0007870793342590332,-0.12674617767333984,-0.9917834401130676
1690899088.9095523,17231,1690899088,909486720,world,3.61332368850708,3.761786460876465,0.29220861196517944,0.018119188025593758,-0.0015256748301908374,-0.12767140567302704,-0.9916498064994812
1690899088.9195569,17232,1690899088,919486225,world,3.613243341445923,3.762080192565918,0.2926156222820282,0.01971515826880932,0.0010219716932624578,-0.1278180629014969,-0.9916011691093445
1690899088.9295335,17233,1690899088,929466932,world,3.6133487224578857,3.76240611076355,0.29275819659233093,0.019810527563095093,0.0026725695934146643,-0.12878820300102234,-0.9914706349372864
1690899088.9395783,17234,1690899088,939487342,world,3.613374710083008,3.7628440856933594,0.29295337200164795,0.019703637808561325,0.002820603782311082,-0.1300978660583496,-0.9913013577461243
1690899088.949606,17235,1690899088,949490936,world,3.6134860515594482,3.7633166313171387,0.2930692136287689,0.0187622532248497,0.0034143945667892694,-0.13134394586086273,-0.9911534786224365
1690899088.9596083,17236,1690899088,959491632,world,3.6135447025299072,3.7638344764709473,0.29319900274276733,0.018516620621085167,0.003578347386792302,-0.13278014957904816,-0.9909660816192627
1690899088.9695218,17237,1690899088,969446934,world,3.6135435104370117,3.7642760276794434,0.2933530807495117,0.01929793693125248,0.003897059941664338,-0.1342502236366272,-0.9907518625259399
1690899088.979582,17238,1690899088,979495235,world,3.613741874694824,3.76450514793396,0.2935434579849243,0.0207707230001688,0.003542786929756403,-0.1342252641916275,-0.990726888179779
1690899088.9896405,17239,1690899088,989496868,world,3.6137661933898926,3.764961004257202,0.2935681641101837,0.020341593772172928,0.0040295543149113655,-0.13578593730926514,-0.9905211925506592
1690899088.99957,17240,1690899088,999486048,world,3.6136605739593506,3.7653887271881104,0.29373422265052795,0.020643996074795723,0.0055288285948336124,-0.13669444620609283,-0.9903826713562012
1690899089.0095534,17241,1690899089,9486998,world,3.613715171813965,3.765777826309204,0.29383352398872375,0.02090437337756157,0.005641650408506393,-0.1374398171901703,-0.9902734756469727
1690899089.0196161,17242,1690899089,19532167,world,3.6137535572052,3.766141891479492,0.2939727008342743,0.021160539239645004,0.005779761355370283,-0.13837741315364838,-0.9901366829872131
1690899089.0295548,17243,1690899089,29493814,world,3.6138148307800293,3.766526460647583,0.29410064220428467,0.021246671676635742,0.005589500069618225,-0.13926415145397186,-0.9900115132331848
1690899089.0395772,17244,1690899089,39488679,world,3.613863468170166,3.767019033432007,0.29417356848716736,0.02233785018324852,0.005246502347290516,-0.14013637602329254,-0.989866316318512
1690899089.0496423,17245,1690899089,49521811,world,3.613903760910034,3.7673487663269043,0.29429206252098083,0.022558698430657387,0.005679667461663485,-0.14132703840732574,-0.9896896481513977
1690899089.0595963,17246,1690899089,59486670,world,3.6139001846313477,3.767852783203125,0.29430004954338074,0.022122614085674286,0.005091704893857241,-0.1419936716556549,-0.9896072745323181
1690899089.069556,17247,1690899089,69471443,world,3.6138951778411865,3.7682535648345947,0.2945062518119812,0.022631462663412094,0.006433017551898956,-0.14315451681613922,-0.9894206523895264
1690899089.079575,17248,1690899089,79497806,world,3.613920211791992,3.768871307373047,0.2943713366985321,0.02098485641181469,0.004683066625148058,-0.1445378065109253,-0.9892656803131104
1690899089.089557,17249,1690899089,89489685,world,3.6148555278778076,3.769547462463379,0.2940886616706848,0.02175549790263176,-0.006339441053569317,-0.14593234658241272,-0.9890350103378296
1690899089.099564,17250,1690899089,99486079,world,3.6140592098236084,3.7696926593780518,0.2945905029773712,0.020657949149608612,0.0044467877596616745,-0.14680318534374237,-0.9889400601387024
1690899089.1095629,17251,1690899089,109492536,world,3.6141390800476074,3.7699787616729736,0.29488155245780945,0.021641625091433525,0.0063814581371843815,-0.14733242988586426,-0.9888296723365784
1690899089.1195745,17252,1690899089,119496342,world,3.6141934394836426,3.770329475402832,0.29502710700035095,0.021854422986507416,0.006424891762435436,-0.14806543290615082,-0.9887151718139648
1690899089.1295383,17253,1690899089,129484717,world,3.61423397064209,3.770771026611328,0.2952118515968323,0.021803423762321472,0.005397248547524214,-0.14963605999946594,-0.9884860515594482
1690899089.139548,17254,1690899089,139474103,world,3.6142499446868896,3.771125078201294,0.2953818440437317,0.022170722484588623,0.005742342211306095,-0.15026497840881348,-0.988380491733551
1690899089.149715,17255,1690899089,149581190,world,3.614245653152466,3.7714600563049316,0.29549452662467957,0.022199351340532303,0.006264155730605125,-0.15090985596179962,-0.9882784485816956
1690899089.1595557,17256,1690899089,159487677,world,3.6142139434814453,3.771822452545166,0.29561087489128113,0.02223360911011696,0.006744435057044029,-0.15144319832324982,-0.9881929159164429
1690899089.1695268,17257,1690899089,169471444,world,3.6141953468322754,3.7721140384674072,0.29572755098342896,0.022659938782453537,0.006816628854721785,-0.1518310308456421,-0.9881231784820557
1690899089.1796594,17258,1690899089,179518545,world,3.614215135574341,3.7724647521972656,0.29576995968818665,0.022766921669244766,0.006713189650326967,-0.15265850722789764,-0.9879938960075378
1690899089.1895475,17259,1690899089,189486022,world,3.6142048835754395,3.7727444171905518,0.2958751916885376,0.022368786856532097,0.007808620110154152,-0.1533704549074173,-0.9878847002983093
1690899089.1995573,17260,1690899089,199486079,world,3.614276647567749,3.7731032371520996,0.2958182692527771,0.021159548312425613,0.007935539819300175,-0.1549708992242813,-0.9876605868339539
1690899089.2095685,17261,1690899089,209473700,world,3.6142802238464355,3.7733633518218994,0.2958367168903351,0.020932182669639587,0.008033083751797676,-0.15571396052837372,-0.9875478148460388
1690899089.2195544,17262,1690899089,219491382,world,3.614278554916382,3.773768663406372,0.2957542836666107,0.02151329629123211,0.006819445174187422,-0.1569095253944397,-0.98735511302948
1690899089.22954,17263,1690899089,229480438,world,3.6143178939819336,3.7740113735198975,0.2957783043384552,0.021787075325846672,0.006399285048246384,-0.1580541431903839,-0.9871693253517151
1690899089.239549,17264,1690899089,239475658,world,3.6143970489501953,3.774231433868408,0.295621782541275,0.022804101929068565,0.009736868552863598,-0.15656709671020508,-0.9873560667037964
1690899089.2495563,17265,1690899089,249487950,world,3.614382266998291,3.77443265914917,0.29564252495765686,0.022821716964244843,0.010099989362061024,-0.15733027458190918,-0.9872307181358337
1690899089.2595706,17266,1690899089,259506956,world,3.6143975257873535,3.7745988368988037,0.2956985533237457,0.02264970727264881,0.010224259458482265,-0.15836399793624878,-0.9870681166648865
1690899089.2695239,17267,1690899089,269471052,world,3.6144020557403564,3.7747135162353516,0.2957151532173157,0.022225068882107735,0.010825090110301971,-0.1591896116733551,-0.9869384765625
1690899089.279608,17268,1690899089,279501398,world,3.6144208908081055,3.7748196125030518,0.2957475781440735,0.021816100925207138,0.011223847046494484,-0.16007529199123383,-0.986799955368042
1690899089.2895977,17269,1690899089,289484803,world,3.614450693130493,3.774949073791504,0.295758455991745,0.021344462409615517,0.01137637160718441,-0.1607626974582672,-0.986696720123291
1690899089.2995572,17270,1690899089,299469936,world,3.6143903732299805,3.775092124938965,0.29592275619506836,0.018848124891519547,0.010339789092540741,-0.16349290311336517,-0.9863103032112122
1690899089.3096757,17271,1690899089,309504044,world,3.61445951461792,3.7751734256744385,0.2957371473312378,0.019966434687376022,0.012197008356451988,-0.162356898188591,-0.9864546656608582
1690899089.3195057,17272,1690899089,319441053,world,3.6143388748168945,3.7751541137695312,0.29583317041397095,0.0185528714209795,0.010886241681873798,-0.16408397257328033,-0.9862118363380432
1690899089.3295064,17273,1690899089,329447371,world,3.614365577697754,3.775242567062378,0.2957552671432495,0.018290365114808083,0.010908248834311962,-0.16486278176307678,-0.9860866069793701
1690899089.3396401,17274,1690899089,339497427,world,3.614358901977539,3.775562047958374,0.29568755626678467,0.018292497843503952,0.009590073488652706,-0.16426841914653778,-0.9861994981765747
1690899089.3495703,17275,1690899089,349492474,world,3.614607095718384,3.775585651397705,0.2956194579601288,0.018521271646022797,0.00797813106328249,-0.16476354002952576,-0.9861269593238831
1690899089.35955,17276,1690899089,359485232,world,3.614403009414673,3.7754907608032227,0.2956863045692444,0.017850862815976143,0.010837472975254059,-0.1653694361448288,-0.9860106110572815
1690899089.3695652,17277,1690899089,369505219,world,3.614858865737915,3.7756004333496094,0.2955942451953888,0.018474990501999855,0.007267843931913376,-0.16559721529483795,-0.9859936237335205
1690899089.3795311,17278,1690899089,379465534,world,3.6151769161224365,3.7755844593048096,0.2956257164478302,0.019579708576202393,0.004835385829210281,-0.16550493240356445,-0.9860028028488159
1690899089.3895571,17279,1690899089,389487741,world,3.6152117252349854,3.7755095958709717,0.2956942617893219,0.019922809675335884,0.0061263758689165115,-0.16588819026947021,-0.9859243035316467
1690899089.399561,17280,1690899089,399487332,world,3.6148014068603516,3.7754387855529785,0.29571399092674255,0.018448229879140854,0.010221969336271286,-0.16638274490833282,-0.9858356714248657
1690899089.409547,17281,1690899089,409469117,world,3.6148626804351807,3.775442600250244,0.2955867648124695,0.017900101840496063,0.010367920622229576,-0.16705110669136047,-0.9857312440872192
1690899089.4195457,17282,1690899089,419471759,world,3.6149373054504395,3.775383710861206,0.2955324947834015,0.018037861213088036,0.009913566522300243,-0.16684380173683167,-0.9857685565948486
1690899089.4295332,17283,1690899089,429477718,world,3.6151628494262695,3.7750091552734375,0.2955905795097351,0.02080426551401615,0.014101119711995125,-0.16471067070960999,-0.9860217571258545
1690899089.4395695,17284,1690899089,439488842,world,3.6151647567749023,3.775118827819824,0.29528236389160156,0.019194554537534714,0.01377799641340971,-0.1656157225370407,-0.9859073162078857
1690899089.4496586,17285,1690899089,449522808,world,3.6151628494262695,3.77517032623291,0.2951340675354004,0.01834363304078579,0.014264692552387714,-0.16612893342971802,-0.9858302474021912
1690899089.4595504,17286,1690899089,459487781,world,3.6152727603912354,3.7750983238220215,0.2947573661804199,0.01693105883896351,0.01239281240850687,-0.16620135307312012,-0.9858685731887817
1690899089.469602,17287,1690899089,469492747,world,3.6153507232666016,3.7749645709991455,0.2946501076221466,0.016609929502010345,0.012631275691092014,-0.1661628782749176,-0.9858775734901428
1690899089.4795718,17288,1690899089,479487974,world,3.615493059158325,3.774778366088867,0.29458197951316833,0.016287563368678093,0.012556497938930988,-0.16593946516513824,-0.9859215617179871
1690899089.4895568,17289,1690899089,489486210,world,3.6156158447265625,3.774678945541382,0.29451194405555725,0.016151374205946922,0.012346554547548294,-0.1659562885761261,-0.9859235882759094
1690899089.4996517,17290,1690899089,499527064,world,3.6155896186828613,3.774517774581909,0.2946343719959259,0.014006070792675018,0.010831297375261784,-0.16818810999393463,-0.9855958819389343
1690899089.5095656,17291,1690899089,509487574,world,3.6157546043395996,3.774393081665039,0.29459348320961,0.014094716869294643,0.010233505629003048,-0.16816064715385437,-0.985605776309967
1690899089.5195124,17292,1690899089,519443950,world,3.6157939434051514,3.774221420288086,0.29455748200416565,0.013789873570203781,0.010490567423403263,-0.16790679097175598,-0.9856505990028381
1690899089.5295467,17293,1690899089,529488252,world,3.615839719772339,3.774081230163574,0.29447653889656067,0.013647994957864285,0.010338100604712963,-0.16771496832370758,-0.9856868982315063
1690899089.5395558,17294,1690899089,539485233,world,3.6159000396728516,3.7739548683166504,0.2943967282772064,0.013590644113719463,0.009961471892893314,-0.16760291159152985,-0.9857105612754822
1690899089.549573,17295,1690899089,549475944,world,3.6159985065460205,3.7736241817474365,0.2945915460586548,0.015149516053497791,0.012367960065603256,-0.16758127510547638,-0.9856642484664917
1690899089.5595386,17296,1690899089,559472099,world,3.615929365158081,3.773712635040283,0.294198215007782,0.012844343669712543,0.009882623329758644,-0.16756385564804077,-0.9857280254364014
1690899089.5695539,17297,1690899089,569487349,world,3.616023063659668,3.773344039916992,0.29432669281959534,0.01507377065718174,0.010835661552846432,-0.1669124960899353,-0.9857969880104065
1690899089.5795686,17298,1690899089,579487925,world,3.6160004138946533,3.77314829826355,0.2942301630973816,0.014609819278120995,0.01092720590531826,-0.16658340394496918,-0.9858585596084595
1690899089.5895631,17299,1690899089,589489283,world,3.6165285110473633,3.7730698585510254,0.29401570558547974,0.015524209477007389,0.005159631837159395,-0.16564655303955078,-0.9860495328903198
1690899089.5995708,17300,1690899089,599494133,world,3.616009473800659,3.7727575302124023,0.294118732213974,0.014300129376351833,0.010493195615708828,-0.166045680642128,-0.9859585762023926
1690899089.6095748,17301,1690899089,609495351,world,3.615907907485962,3.77266526222229,0.29384657740592957,0.012567691504955292,0.009882220067083836,-0.16633068025112152,-0.9859404563903809
1690899089.6195452,17302,1690899089,619485446,world,3.6158623695373535,3.7726423740386963,0.29369744658470154,0.012597334571182728,0.008020048029720783,-0.16543500125408173,-0.9861077070236206
1690899089.6296217,17303,1690899089,629499572,world,3.6161880493164062,3.772704839706421,0.29344823956489563,0.013208690099418163,0.002574942307546735,-0.1644267737865448,-0.9862974882125854
1690899089.6395369,17304,1690899089,639480725,world,3.6158485412597656,3.7720465660095215,0.29364582896232605,0.013365340419113636,0.008805125020444393,-0.1640859693288803,-0.9863162040710449
1690899089.6495833,17305,1690899089,649491124,world,3.615830183029175,3.771850109100342,0.29358604550361633,0.013383287005126476,0.008707343600690365,-0.16361112892627716,-0.9863957762718201
1690899089.6595862,17306,1690899089,659493863,world,3.616187810897827,3.7717490196228027,0.2933875620365143,0.0140556450933218,0.004970236215740442,-0.16294440627098083,-0.9865226149559021
1690899089.6695044,17307,1690899089,669447573,world,3.6159205436706543,3.7714929580688477,0.2933546006679535,0.01335479598492384,0.007621873635798693,-0.1625690907239914,-0.9865773916244507
1690899089.67955,17308,1690899089,679484754,world,3.6157851219177246,3.7711822986602783,0.2933126986026764,0.013152427971363068,0.00911620818078518,-0.1618461161851883,-0.9866862297058105
1690899089.6896567,17309,1690899089,689505597,world,3.6157078742980957,3.7709078788757324,0.2932303547859192,0.012977775186300278,0.00919421948492527,-0.16113394498825073,-0.9868044257164001
1690899089.69958,17310,1690899089,699496009,world,3.6157689094543457,3.77058482170105,0.2930971384048462,0.013168730773031712,0.008866768330335617,-0.15982185304164886,-0.9870182275772095
1690899089.7095242,17311,1690899089,709457535,world,3.6157453060150146,3.770275354385376,0.2930012345314026,0.013098372146487236,0.008816424757242203,-0.15917299687862396,-0.987124502658844
1690899089.719552,17312,1690899089,719484753,world,3.615685224533081,3.7701303958892822,0.2928805649280548,0.012935488484799862,0.007544791325926781,-0.15781404078006744,-0.9873552918434143
1690899089.7295632,17313,1690899089,729485707,world,3.6155567169189453,3.7698941230773926,0.29272523522377014,0.012268840335309505,0.007174881175160408,-0.15729539096355438,-0.9874493479728699
1690899089.7395394,17314,1690899089,739472575,world,3.6156084537506104,3.769388437271118,0.29282933473587036,0.014093746431171894,0.00791226513683796,-0.15619195997714996,-0.9875945448875427
1690899089.7495327,17315,1690899089,749465081,world,3.6154770851135254,3.7690978050231934,0.29272621870040894,0.013624557293951511,0.008587163873016834,-0.15523113310337067,-0.9877468943595886
1690899089.7596073,17316,1690899089,759470333,world,3.6154184341430664,3.7688992023468018,0.29258546233177185,0.012933601625263691,0.008188245818018913,-0.15483111143112183,-0.987822413444519
1690899089.769523,17317,1690899089,769473249,world,3.615353584289551,3.7686243057250977,0.2925069034099579,0.012564664706587791,0.008237521164119244,-0.15416061878204346,-0.9879315495491028
1690899089.779513,17318,1690899089,779447955,world,3.6153151988983154,3.7682859897613525,0.2924100458621979,0.012292025610804558,0.00797943864017725,-0.15339134633541107,-0.9880568385124207
1690899089.7896087,17319,1690899089,789492568,world,3.6153335571289062,3.76794171333313,0.2923027276992798,0.012357654049992561,0.007004640065133572,-0.15331552922725677,-0.9880751967430115
1690899089.7996132,17320,1690899089,799491321,world,3.6152865886688232,3.767582416534424,0.2922388017177582,0.01157290954142809,0.006791213061660528,-0.15184861421585083,-0.9883127212524414
1690899089.8095531,17321,1690899089,809486510,world,3.6152331829071045,3.767242908477783,0.29209643602371216,0.011371216736733913,0.006518144626170397,-0.1509999930858612,-0.9884469509124756
1690899089.8196256,17322,1690899089,819515980,world,3.6152689456939697,3.766998291015625,0.2918766140937805,0.0131492018699646,0.007507254369556904,-0.14853370189666748,-0.9887914061546326
1690899089.8295426,17323,1690899089,829483732,world,3.6150765419006348,3.7667481899261475,0.29198014736175537,0.011297239921987057,0.005466162227094173,-0.15014274418354034,-0.9885846972465515
1690899089.839529,17324,1690899089,839472488,world,3.614891767501831,3.76648211479187,0.2919957935810089,0.011139249429106712,0.006292425561696291,-0.1492762267589569,-0.9887128472328186
1690899089.8496017,17325,1690899089,849499347,world,3.6149353981018066,3.7660202980041504,0.29196012020111084,0.012201965786516666,0.005031355191022158,-0.148125559091568,-0.9888805150985718
1690899089.8595881,17326,1690899089,859494392,world,3.614805221557617,3.765869140625,0.29192036390304565,0.01206818874925375,0.0043876999989151955,-0.14686669409275055,-0.9890730381011963
1690899089.86953,17327,1690899089,869476460,world,3.6145572662353516,3.765634536743164,0.29175662994384766,0.011727805249392986,0.004356751684099436,-0.1459386646747589,-0.9892145395278931
1690899089.8795877,17328,1690899089,879495271,world,3.614433765411377,3.765366315841675,0.29169026017189026,0.011399470269680023,0.004691835027188063,-0.14507603645324707,-0.9893437623977661
1690899089.8895466,17329,1690899089,889487429,world,3.614288330078125,3.765132188796997,0.2915078103542328,0.011233233846724033,0.004072980023920536,-0.14431071281433105,-0.989460289478302
1690899089.8995683,17330,1690899089,899485456,world,3.614269256591797,3.76454496383667,0.2914927899837494,0.011208531446754932,0.004015957936644554,-0.14242228865623474,-0.989734411239624
1690899089.9095633,17331,1690899089,909488513,world,3.6141600608825684,3.7642831802368164,0.29137080907821655,0.010833129286766052,0.0031400183215737343,-0.14110364019870758,-0.9899305701255798
1690899089.9195623,17332,1690899089,919494319,world,3.614017963409424,3.763974189758301,0.29125550389289856,0.01064662542194128,0.0026415043976157904,-0.14017291367053986,-0.9900662899017334
1690899089.9295368,17333,1690899089,929480568,world,3.613874912261963,3.763660430908203,0.29119566082954407,0.010187477804720402,0.003014425514265895,-0.13927757740020752,-0.9901964068412781
1690899089.9395297,17334,1690899089,939473028,world,3.6137800216674805,3.7633113861083984,0.29111185669898987,0.009838180616497993,0.002669747918844223,-0.13842138648033142,-0.9903209805488586
1690899089.9497166,17335,1690899089,949538235,world,3.6138951778411865,3.762882947921753,0.29103294014930725,0.011074258014559746,0.00024472858058288693,-0.13842545449733734,-0.9903109073638916
